Calibration (sys),Calibration (gyro),Calibration (accel),Calibration (mag),Roll [deg],Pitch [deg],Yaw [deg],Angular velocity (x),Angular velocity (y),Angular velocity (z),Linear acceleration (x),Linear acceleration (y),Linear acceleration (z),Acceleration (x),Acceleration (y),Acceleration (z),Gravity (x),Gravity (y),Gravity (z),Magnetometer (x),Magnetometer (y),Magnetometer (z),Quaternion (w),Quaternion (x),Quaternion (y),Quaternion (z),Pressure [Pa],Temperature [K],Altitude [m],Time [s]
calibration_sys,calibration_gyro,calibration_accel,calibration_mag,orientation_x,orientation_y,orientation_z,angular_velocity_x,angular_velocity_y,angular_velocity_z,linear_acceleration_x,linear_acceleration_y,linear_acceleration_z,acceleration_x,acceleration_y,acceleration_z,gravity_x,gravity_y,gravity_z,magnetometer_x,magnetometer_y,magnetometer_z,quaternion_w,quaternion_x,quaternion_y,quaternion_z,pressure,temperature,altitude,timestamp
3,3,3,3,0.0000,-6.0000,-144.0000,0.0000,0.0000,0.0000,0.0000,0.0000,0.0000,0.0000,1.0244,-9.7466,0.0000,1.0244,-9.7466,-14.9579,-16.2462,-38.2757,0.308593,-0.016173,0.049774,-0.949753,98712.44,280.81,283.54,0.0000
3,3,3,3,0.0000,-6.0000,-144.0000,0.0000,0.0000,0.0000,0.0000,-0.0000,12.0314,0.0000,1.0244,2.2848,0.0000,1.0244,-9.7466,-14.9579,-16.2462,-38.2757,0.308593,-0.016173,0.049774,-0.949753,98712.41,280.81,283.54,0.0286
3,3,3,3,0.0000,-6.0000,-144.0000,0.0000,0.0000,0.0000,-0.0000,-0.0000,38.7088,-0.0000,1.0244,28.9622,0.0000,1.0244,-9.7466,-14.9579,-16.2462,-38.2757,0.308593,-0.016173,0.049774,-0.949753,98712.11,280.81,283.57,0.0571
3,3,3,3,0.0000,-6.0000,-144.0000,0.0000,0.0000,0.0000,0.0000,0.0000,38.9334,0.0000,1.0244,29.1868,0.0000,1.0244,-9.7466,-14.9579,-16.2462,-38.2757,0.308593,-0.016173,0.049774,-0.949753,98711.44,280.81,283.62,0.0857
3,3,3,3,0.0000,-6.0000,-144.0000,0.0000,0.0000,0.0000,-0.0000,-0.0000,47.8053,-0.0000,1.0244,38.0587,0.0000,1.0244,-9.7466,-14.9579,-16.2462,-38.2757,0.308593,-0.016173,0.049774,-0.949753,98710.34,280.81,283.72,0.1143
3,3,3,3,0.0000,-6.0000,-144.0000,0.0000,0.0000,0.0000,-0.0000,-0.0000,51.3953,-0.0000,1.0244,41.6487,0.0000,1.0244,-9.7466,-14.9579,-16.2462,-38.2757,0.308593,-0.016173,0.049774,-0.949753,98708.76,280.81,283.85,0.1429
3,3,3,3,0.0000,-6.0000,-144.0000,0.0000,0.0000,0.0000,0.0000,0.0000,53.5455,0.0000,1.0244,43.7989,0.0000,1.0244,-9.7466,-14.9579,-16.2462,-38.2757,0.308593,-0.016173,0.049774,-0.949753,98706.66,280.81,284.02,0.1714
3,3,3,3,0.0000,-6.0000,-144.0000,0.0000,0.0000,0.0000,-0.0000,-0.0000,54.0049,-0.0000,1.0244,44.2583,0.0000,1.0244,-9.7466,-14.9579,-16.2462,-38.2757,0.308593,-0.016173,0.049774,-0.949753,98704.04,280.82,284.24,0.2000
3,3,3,3,0.0000,-6.0000,-144.0000,0.0000,0.0000,0.0000,0.0000,0.0000,54.3137,0.0000,1.0244,44.5671,0.0000,1.0244,-9.7466,-14.9579,-16.2462,-38.2757,0.308593,-0.016173,0.049774,-0.949753,98700.90,280.82,284.50,0.2286
3,3,3,3,0.0000,-6.0000,-144.0000,0.0000,0.0000,0.0000,0.0000,0.0000,54.2662,0.0000,1.0244,44.5197,0.0000,1.0244,-9.7466,-14.9579,-16.2462,-38.2756,0.308593,-0.016173,0.049774,-0.949753,98697.23,280.82,284.81,0.2571
3,3,3,3,0.0000,-6.0000,-144.0000,0.0000,0.0000,0.0000,0.0000,0.0000,54.2017,0.0000,1.0244,44.4552,0.0000,1.0244,-9.7466,-14.9579,-16.2462,-38.2756,0.308593,-0.016173,0.049774,-0.949753,98693.03,280.82,285.16,0.2857
3,3,3,3,0.0000,-6.0000,-144.0000,0.0000,0.0000,0.0000,-0.0000,0.0000,54.1361,-0.0000,1.0244,44.3895,0.0000,1.0244,-9.7466,-14.9579,-16.2462,-38.2756,0.308593,-0.016173,0.049774,-0.949753,98688.30,280.83,285.56,0.3143
3,3,3,3,0.0000,-6.0000,-144.0000,0.0000,0.0000,0.0000,-0.0000,0.0000,54.0859,-0.0000,1.0244,44.3393,0.0000,1.0244,-9.7466,-14.9579,-16.2462,-38.2756,0.308593,-0.016173,0.049774,-0.949753,98683.05,280.83,286.00,0.3429
3,3,3,3,0.0000,-6.0000,-144.0000,0.0000,0.0000,0.0000,0.0000,-0.0000,54.2827,0.0000,1.0244,44.5361,0.0000,1.0244,-9.7466,-14.9579,-16.2462,-38.2756,0.308593,-0.016173,0.049774,-0.949753,98677.27,280.83,286.48,0.3714
3,3,3,3,0.0000,-6.0000,-144.0000,0.0000,0.0000,0.0000,0.0000,0.0000,54.5620,0.0000,1.0244,44.8154,0.0000,1.0244,-9.7466,-14.9579,-16.2462,-38.2756,0.308593,-0.016173,0.049774,-0.949753,98670.96,280.84,287.00,0.4000
3,3,3,3,0.0000,-6.0000,-144.0000,0.0000,0.0000,0.0000,-0.0000,-0.0000,54.8412,-0.0000,1.0244,45.0946,0.0000,1.0244,-9.7466,-14.9579,-16.2462,-38.2756,0.308593,-0.016173,0.049774,-0.949753,98664.13,280.84,287.58,0.4286
3,3,3,3,0.0000,-6.0000,-144.0000,0.0000,0.0000,0.0000,0.0000,-0.0000,55.1205,0.0000,1.0244,45.3739,0.0000,1.0244,-9.7466,-14.9579,-16.2462,-38.2756,0.308593,-0.016173,0.049774,-0.949753,98656.75,280.84,288.19,0.4571
3,3,3,3,0.0000,-6.0000,-144.0000,0.0000,0.0000,0.0000,0.0000,-0.0000,55.3997,0.0000,1.0244,45.6531,0.0000,1.0244,-9.7466,-14.9579,-16.2462,-38.2756,0.308593,-0.016173,0.049774,-0.949753,98648.84,280.85,288.85,0.4857
3,3,3,3,0.0000,-6.0000,-144.0000,0.0000,0.0000,0.0000,-0.0000,0.0000,55.6790,-0.0000,1.0244,45.9324,0.0000,1.0244,-9.7466,-14.9579,-16.2462,-38.2756,0.308593,-0.016173,0.049774,-0.949753,98640.39,280.86,289.56,0.5143
3,3,3,3,0.0000,-6.0000,-144.0000,0.0000,0.0000,0.0000,0.0000,-0.0000,55.9537,0.0000,1.0244,46.2071,0.0000,1.0244,-9.7466,-14.9579,-16.2462,-38.2755,0.308593,-0.016173,0.049774,-0.949753,98631.40,280.86,290.31,0.5429
3,3,3,3,0.0000,-6.0000,-144.0000,0.0000,0.0000,0.0000,-0.0000,-0.0000,56.0920,-0.0000,1.0244,46.3454,0.0000,1.0244,-9.7466,-14.9579,-16.2462,-38.2755,0.308593,-0.016173,0.049774,-0.949753,98621.86,280.87,291.11,0.5714
3,3,3,3,0.0000,-6.0000,-144.0000,0.0000,0.0000,0.0000,-0.0000,-0.0000,56.1646,-0.0000,1.0244,46.4180,0.0000,1.0244,-9.7466,-14.9579,-16.2462,-38.2755,0.308593,-0.016173,0.049774,-0.949753,98611.78,280.87,291.95,0.6000
3,3,3,3,0.0000,-6.0000,-144.0000,0.0000,0.0000,0.0000,-0.0000,-0.0000,56.2365,-0.0000,1.0244,46.4899,0.0000,1.0244,-9.7466,-14.9579,-16.2461,-38.2755,0.308593,-0.016173,0.049774,-0.949753,98601.15,280.88,292.84,0.6286
3,3,3,3,-0.0080,-5.9975,-143.9920,0.0051,-0.0017,0.0000,0.0689,0.8116,56.3064,0.0687,1.8356,46.5598,-0.0001,1.0240,-9.7466,-14.9584,-16.2478,-38.2746,0.308594,-0.016173,0.049752,-0.949754,98589.98,280.89,293.77,0.6571
3,3,3,3,-0.0580,-5.9821,-143.9416,0.0138,-0.0047,0.0000,0.1217,1.3815,56.3756,0.1206,2.4028,46.6287,-0.0010,1.0214,-9.7469,-14.9619,-16.2581,-38.2688,0.308599,-0.016175,0.049609,-0.949760,98578.26,280.89,294.75,0.6857
3,3,3,3,-0.1563,-5.9521,-143.8428,0.0228,-0.0078,0.0000,0.1278,1.3964,56.4450,0.1250,2.4126,46.6975,-0.0028,1.0163,-9.7474,-14.9687,-16.2781,-38.2576,0.308607,-0.016179,0.049333,-0.949772,98565.99,280.90,295.77,0.7143
3,3,3,3,-0.3056,-5.9074,-143.6927,0.0319,-0.0110,0.0000,0.1327,1.4074,56.5134,0.1274,2.4160,46.7652,-0.0054,1.0086,-9.7482,-14.9790,-16.3080,-38.2408,0.308620,-0.016185,0.048921,-0.949789,98553.17,280.91,296.84,0.7429
3,3,3,3,-0.5096,-5.8477,-143.4877,0.0412,-0.0142,-0.0000,0.1363,1.4142,56.5657,0.1274,2.4126,46.8165,-0.0089,0.9985,-9.7492,-14.9927,-16.3479,-38.2184,0.308637,-0.016195,0.048370,-0.949811,98539.81,280.92,297.96,0.7714
3,3,3,3,-0.7723,-5.7730,-143.2236,0.0505,-0.0175,0.0000,0.1384,1.4163,56.5596,0.1251,2.4020,46.8090,-0.0133,0.9857,-9.7505,-15.0099,-16.3979,-38.1901,0.308659,-0.016207,0.047678,-0.949839,98525.90,280.93,299.12,0.8000
3,3,3,3,-1.0990,-5.6833,-142.8953,0.0597,-0.0208,0.0000,0.1388,1.4134,56.5466,0.1202,2.3837,46.7945,-0.0186,0.9703,-9.7521,-15.0308,-16.4580,-38.1560,0.308685,-0.016224,0.046846,-0.949872,98511.44,280.94,300.33,0.8286
3,3,3,3,-1.4955,-5.5789,-142.4968,0.0689,-0.0241,0.0000,0.1375,1.4051,56.5324,0.1126,2.3575,46.7786,-0.0249,0.9524,-9.7538,-15.0552,-16.5281,-38.1161,0.308714,-0.016244,0.045875,-0.949909,98496.43,280.95,301.59,0.8571
3,3,3,3,-1.9689,-5.4600,-142.0212,0.0779,-0.0274,0.0000,0.1343,1.3913,56.5171,0.1022,2.3232,46.7613,-0.0320,0.9320,-9.7558,-15.0832,-16.6080,-38.0702,0.308748,-0.016270,0.044765,-0.949951,98480.87,280.96,302.88,0.8857
3,3,3,3,-2.5274,-5.3272,-141.4603,0.0867,-0.0306,0.0000,0.1291,1.3716,56.5007,0.0890,2.2806,46.7428,-0.0401,0.9090,-9.7579,-15.1147,-16.6975,-38.0185,0.308785,-0.016300,0.043520,-0.949996,98464.76,280.97,304.23,0.9143
3,3,3,3,-3.1806,-5.1812,-140.8043,0.0951,-0.0338,0.0000,0.1217,1.3455,56.4832,0.0726,2.2291,46.7230,-0.0491,0.8837,-9.7602,-15.1497,-16.7961,-37.9611,0.308826,-0.016336,0.042144,-0.950044,98448.11,280.98,305.62,0.9429
3,3,3,3,-3.9398,-5.0228,-140.0421,0.1031,-0.0368,-0.0000,0.1121,1.3131,56.4646,0.0532,2.1691,46.7021,-0.0590,0.8560,-9.7626,-15.1879,-16.9036,-37.8980,0.308870,-0.016378,0.040642,-0.950094,98430.90,280.99,307.06,0.9714
3,3,3,3,-4.8179,-4.8532,-139.1607,0.1106,-0.0397,-0.0000,0.1002,1.2739,56.4451,0.0305,2.1000,46.6800,-0.0696,0.8262,-9.7651,-15.2294,-17.0192,-37.8295,0.308917,-0.016427,0.039023,-0.950146,98413.15,281.00,308.54,1.0000
3,3,3,3,-5.8299,-4.6735,-138.1452,0.1174,-0.0425,-0.0000,0.0858,1.2278,56.4245,0.0047,2.0222,46.6569,-0.0811,0.7944,-9.7676,-15.2737,-17.1423,-37.7560,0.308966,-0.016481,0.037294,-0.950199,98394.85,281.01,310.07,1.0286
3,3,3,3,-6.9930,-4.4855,-136.9783,0.1235,-0.0450,-0.0000,0.0689,1.1751,56.4038,-0.0244,1.9358,46.6336,-0.0933,0.7607,-9.7702,-15.3209,-17.2721,-37.6776,0.309018,-0.016543,0.035465,-0.950251,98376.00,281.02,311.65,1.0571
3,3,3,3,-8.3266,-4.2908,-135.6409,0.1287,-0.0472,-0.0000,0.0495,1.1153,56.4482,-0.0567,1.8408,46.6755,-0.1062,0.7255,-9.7727,-15.3704,-17.4078,-37.5948,0.309070,-0.016612,0.033548,-0.950302,98356.60,281.03,313.27,1.0857
3,3,3,3,-9.8522,-4.0916,-134.1112,0.1331,-0.0492,-0.0000,0.0277,1.0491,56.5342,-0.0919,1.7380,46.7590,-0.1196,0.6889,-9.7752,-15.4221,-17.5483,-37.5082,0.309124,-0.016688,0.031557,-0.950352,98336.66,281.05,314.93,1.1143
3,3,3,3,-11.5934,-3.8900,-132.3658,0.1363,-0.0508,-0.0000,0.0035,0.9763,56.6196,-0.1301,1.6276,46.8420,-0.1336,0.6513,-9.7776,-15.4756,-17.6925,-37.4182,0.309178,-0.016771,0.029507,-0.950398,98316.16,281.06,316.64,1.1429
3,3,3,3,-13.5739,-3.6886,-130.3810,0.1384,-0.0520,-0.0000,-0.0220,0.8995,56.7045,-0.1700,1.5123,46.9247,-0.1480,0.6129,-9.7799,-15.5305,-17.8393,-37.3256,0.309232,-0.016862,0.027413,-0.950442,98295.11,281.07,318.40,1.1714
3,3,3,3,-15.8152,-3.4905,-128.1352,0.1392,-0.0527,-0.0000,-0.0478,0.8207,56.7891,-0.2104,1.3948,47.0071,-0.1626,0.5741,-9.7820,-15.5863,-17.9872,-37.2312,0.309285,-0.016960,0.025296,-0.950482,98273.50,281.09,320.21,1.2000
3,3,3,3,-18.3416,-3.2982,-125.6044,0.1389,-0.0532,-0.0000,-0.0728,0.7425,56.8732,-0.2502,1.2777,47.0893,-0.1774,0.5352,-9.7839,-15.6426,-18.1350,-37.1358,0.309337,-0.017065,0.023173,-0.950517,98251.35,281.10,322.06,1.2286
3,3,3,3,-21.1756,-3.1144,-122.7659,0.1376,-0.0534,-0.0000,-0.0991,0.6608,56.9568,-0.2914,1.1573,47.1712,-0.1923,0.4965,-9.7857,-15.6991,-18.2816,-37.0399,0.309388,-0.017177,0.021058,-0.950548,98228.63,281.11,323.96,1.2571
3,3,3,3,-24.3322,-2.9420,-119.6049,0.1353,-0.0532,-0.0000,-0.1267,0.5762,57.0401,-0.3339,1.0346,47.2528,-0.2072,0.4583,-9.7872,-15.7554,-18.4259,-36.9443,0.309437,-0.017298,0.018968,-0.950573,98205.37,281.13,325.90,1.2857
3,3,3,3,-27.8135,-2.7836,-116.1193,0.1317,-0.0527,-0.0000,-0.1553,0.4896,57.1228,-0.3774,0.9105,47.3342,-0.2221,0.4210,-9.7886,-15.8113,-18.5668,-36.8497,0.309483,-0.017427,0.016919,-0.950595,98181.54,281.14,327.89,1.3143
3,3,3,3,-31.6019,-2.6419,-112.3266,0.1271,-0.0519,-0.0000,-0.1848,0.4017,57.2051,-0.4215,0.7864,47.4153,-0.2367,0.3847,-9.7897,-15.8663,-18.7029,-36.7570,0.309528,-0.017565,0.014929,-0.950611,98157.16,281.16,329.93,1.3429
3,3,3,3,-35.6546,-2.5189,-108.2699,0.1213,-0.0507,-0.0000,-0.2148,0.3135,57.2869,-0.4659,0.6634,47.4962,-0.2511,0.3500,-9.7907,-15.9201,-18.8333,-36.6671,0.309569,-0.017712,0.013015,-0.950623,98132.22,281.18,332.01,1.3714
3,3,3,3,-39.8988,-2.4162,-104.0217,0.1144,-0.0491,-0.0000,-0.2451,0.2261,57.3787,-0.5101,0.5431,47.5873,-0.2650,0.3170,-9.7914,-15.9723,-18.9567,-36.5806,0.309608,-0.017868,0.011192,-0.950631,98106.72,281.19,334.14,1.4000
3,3,3,3,-44.2331,-2.3347,-99.6836,0.1065,-0.0472,-0.0000,-0.2753,0.1408,57.5173,-0.5538,0.4269,47.7254,-0.2785,0.2860,-9.7920,-16.0226,-19.0720,-36.4985,0.309643,-0.018034,0.009478,-0.950634,98080.65,281.21,336.32,1.4286
3,3,3,3,-48.5338,-2.2740,-95.3795,0.0975,-0.0449,-0.0000,-0.3051,0.0587,57.6618,-0.5964,0.3162,47.8694,-0.2914,0.2575,-9.7924,-16.0706,-19.1784,-36.4216,0.309675,-0.018208,0.007888,-0.950635,98054.03,281.22,338.54,1.4571
3,3,3,3,-52.6673,-2.2328,-91.2429,0.0877,-0.0423,-0.0000,-0.3340,-0.0189,57.8059,-0.6376,0.2126,48.0132,-0.3036,0.2316,-9.7927,-16.1159,-19.2747,-36.3505,0.309704,-0.018390,0.006436,-0.950633,98026.84,281.24,340.81,1.4857
3,3,3,3,-56.5055,-2.2092,-87.4018,0.0771,-0.0394,-0.0000,-0.3617,-0.0907,57.9496,-0.6768,0.1177,48.1568,-0.3150,0.2085,-9.7928,-16.1583,-19.3603,-36.2861,0.309729,-0.018581,0.005135,-0.950629,97999.09,281.26,343.13,1.5143
3,3,3,3,-59.9394,-2.2003,-83.9653,0.0658,-0.0363,-0.0000,-0.3878,-0.1554,58.0928,-0.7134,0.0331,48.2999,-0.3256,0.1885,-9.7929,-16.1976,-19.4343,-36.2289,0.309751,-0.018779,0.003996,-0.950624,97970.77,281.28,345.50,1.5429
3,3,3,3,-62.8877,-2.2031,-81.0148,0.0541,-0.0329,-0.0000,-0.4118,-0.2117,58.2355,-0.7471,-0.0400,48.4427,-0.3353,0.1717,-9.7928,-16.2334,-19.4963,-36.1795,0.309769,-0.018984,0.003028,-0.950618,97941.88,281.29,347.91,1.5714
3,3,3,3,-65.2994,-2.2147,-78.6014,0.0420,-0.0294,-0.0000,-0.4332,-0.2580,58.3778,-0.7773,-0.0997,48.5850,-0.3441,0.1583,-9.7928,-16.2656,-19.5459,-36.1382,0.309783,-0.019195,0.002238,-0.950611,97912.43,281.31,350.37,1.6000
3,3,3,3,-67.1512,-2.2323,-76.7481,0.0297,-0.0257,-0.0000,-0.4518,-0.2936,58.5194,-0.8036,-0.1454,48.7268,-0.3518,0.1482,-9.7926,-16.2940,-19.5829,-36.1053,0.309794,-0.019411,0.001629,-0.950604,97882.40,281.33,352.88,1.6286
3,3,3,3,-68.4433,-2.2538,-75.4551,0.0176,-0.0220,-0.0000,-0.4672,-0.3174,58.6605,-0.8256,-0.1758,48.8681,-0.3584,0.1416,-9.7925,-16.3186,-19.6073,-36.0809,0.309801,-0.019630,0.001203,-0.950598,97851.80,281.35,355.44,1.6571
3,3,3,3,-69.1932,-2.2776,-74.7046,0.0058,-0.0182,-0.0000,-0.4788,-0.3283,58.8013,-0.8429,-0.1900,49.0090,-0.3641,0.1383,-9.7923,-16.3393,-19.6192,-36.0649,0.309804,-0.019852,0.000956,-0.950593,97820.63,281.37,358.04,1.6857
3,3,3,3,-69.4321,-2.3027,-74.4655,-0.0056,-0.0146,-0.0000,-0.4866,-0.3260,58.9386,-0.8553,-0.1876,49.1464,-0.3687,0.1383,-9.7921,-16.3562,-19.6193,-36.0572,0.309805,-0.020074,0.000882,-0.950588,97788.88,281.39,360.69,1.7143
3,3,3,3,-69.2021,-2.3286,-74.6956,-0.0161,-0.0111,-0.0000,-0.4901,-0.3094,59.0383,-0.8624,-0.1680,49.2464,-0.3722,0.1414,-9.7919,-16.3694,-19.6080,-36.0573,0.309802,-0.020296,0.000974,-0.950584,97756.56,281.41,363.39,1.7429
3,3,3,3,-68.5540,-2.3553,-75.3443,-0.0257,-0.0077,-0.0000,-0.4894,-0.2790,59.1259,-0.8642,-0.1317,49.3341,-0.3749,0.1473,-9.7918,-16.3790,-19.5864,-36.0646,0.309796,-0.020517,0.001217,-0.950581,97723.66,281.43,366.14,1.7714
3,3,3,3,-67.5460,-2.3831,-76.3532,-0.0340,-0.0047,-0.0000,-0.4843,-0.2349,59.2129,-0.8609,-0.0792,49.4213,-0.3766,0.1556,-9.7915,-16.3854,-19.5554,-36.0784,0.309787,-0.020734,0.001597,-0.950579,97690.18,281.45,368.94,1.8000
3,3,3,3,-66.2444,-2.4123,-77.6559,-0.0410,-0.0020,-0.0000,-0.4748,-0.1772,59.2992,-0.8523,-0.0110,49.5079,-0.3775,0.1662,-9.7913,-16.3888,-19.5166,-36.0978,0.309776,-0.020946,0.002093,-0.950577,97656.13,281.47,371.78,1.8286
3,3,3,3,-64.7201,-2.4434,-79.1816,-0.0463,0.0002,-0.0000,-0.4611,-0.1075,59.3844,-0.8389,0.0710,49.5933,-0.3778,0.1784,-9.7911,-16.3897,-19.4714,-36.1217,0.309763,-0.021151,0.002684,-0.950575,97621.49,281.50,374.68,1.8571
3,3,3,3,-63.0491,-2.4765,-80.8541,-0.0499,0.0020,-0.0000,-0.4436,-0.0265,59.3326,-0.8210,0.1654,49.5418,-0.3775,0.1919,-9.7908,-16.3885,-19.4216,-36.1490,0.309748,-0.021349,0.003344,-0.950573,97586.28,281.52,377.62,1.8857
3,3,3,3,-61.3081,-2.5116,-82.5967,-0.0517,0.0032,-0.0000,-0.4225,0.0637,59.1546,-0.7992,0.2699,49.3641,-0.3767,0.2062,-9.7906,-16.3857,-19.3689,-36.1784,0.309732,-0.021539,0.004048,-0.950571,97550.49,281.54,380.61,1.9143
3,3,3,3,-59.5740,-2.5482,-84.3326,-0.0515,0.0039,-0.0000,-0.3984,0.1613,58.9730,-0.7741,0.3820,49.1827,-0.3757,0.2207,-9.7903,-16.3819,-19.3153,-36.2087,0.309716,-0.021718,0.004767,-0.950569,97514.12,281.56,383.64,1.9429
3,3,3,3,-57.9190,-2.5855,-85.9892,-0.0493,0.0040,-0.0000,-0.3719,0.2637,58.7896,-0.7465,0.4985,48.9996,-0.3746,0.2348,-9.7900,-16.3778,-19.2629,-36.2384,0.309700,-0.021888,0.005471,-0.950567,97477.78,281.57,386.73,1.9714
3,3,3,3,-56.4104,-2.6224,-87.4994,-0.0452,0.0035,-0.0000,-0.3439,0.3679,58.6040,-0.7174,0.6160,48.8143,-0.3735,0.2481,-9.7897,-16.3738,-19.2138,-36.2662,0.309685,-0.022046,0.006132,-0.950564,97441.25,281.55,389.87,2.0000
3,3,3,3,-55.1061,-2.6574,-88.8050,-0.0393,0.0024,-0.0000,-0.3151,0.4713,58.4156,-0.6877,0.7312,48.6262,-0.3727,0.2599,-9.7894,-16.3707,-19.1698,-36.2908,0.309671,-0.022193,0.006721,-0.950561,97404.16,281.54,393.05,2.0286
3,3,3,3,-54.0573,-2.6890,-89.8550,-0.0316,0.0007,-0.0000,-0.2865,0.5704,58.2190,-0.6587,0.8403,48.4299,-0.3722,0.2699,-9.7891,-16.3690,-19.1329,-36.3109,0.309660,-0.022328,0.007211,-0.950558,97366.52,281.53,396.28,2.0571
3,3,3,3,-53.3066,-2.7157,-90.6065,-0.0224,-0.0015,-0.0000,-0.2590,0.6624,58.0197,-0.6313,0.9399,48.2308,-0.3723,0.2774,-9.7889,-16.3693,-19.1048,-36.3255,0.309651,-0.022452,0.007578,-0.950555,97328.33,281.51,399.55,2.0857
3,3,3,3,-52.8903,-2.7363,-91.0233,-0.0119,-0.0042,0.0000,-0.2337,0.7439,57.8189,-0.6068,1.0262,48.0302,-0.3731,0.2823,-9.7887,-16.3721,-19.0868,-36.3336,0.309646,-0.022566,0.007800,-0.950552,97289.59,281.50,402.88,2.1143
3,3,3,3,-52.8378,-2.7498,-91.0759,-0.0004,-0.0072,0.0000,-0.2115,0.8121,57.6166,-0.5862,1.0961,47.8280,-0.3747,0.2840,-9.7886,-16.3780,-19.0804,-36.3343,0.309644,-0.022671,0.007859,-0.950550,97250.30,281.49,406.25,2.1429
3,3,3,3,-53.1735,-2.7559,-90.7398,0.0117,-0.0106,0.0000,-0.1934,0.8640,57.4128,-0.5706,1.1464,47.6242,-0.3772,0.2824,-9.7886,-16.3872,-19.0862,-36.3270,0.309647,-0.022767,0.007743,-0.950547,97210.46,281.47,409.67,2.1714
3,3,3,3,-53.9159,-2.7548,-89.9966,0.0242,-0.0142,0.0000,-0.1803,0.8974,57.2075,-0.5609,1.1748,47.4189,-0.3806,0.2774,-9.7886,-16.4001,-19.1048,-36.3113,0.309654,-0.022856,0.007444,-0.950545,97170.08,281.46,413.13,2.2000
3,3,3,3,-55.0768,-2.7473,-88.8343,0.0365,-0.0179,0.0000,-0.1727,0.9106,57.0007,-0.5578,1.1796,47.2121,-0.3851,0.2689,-9.7886,-16.4167,-19.1363,-36.2871,0.309666,-0.022940,0.006960,-0.950543,97129.16,281.44,416.64,2.2286
3,3,3,3,-56.6598,-2.7350,-87.2495,0.0484,-0.0216,0.0000,-0.1713,0.9025,56.7925,-0.5620,1.1595,47.0038,-0.3907,0.2570,-9.7887,-16.4372,-19.1803,-36.2545,0.309682,-0.023020,0.006295,-0.950541,97087.69,281.43,420.20,2.2571
3,3,3,3,-58.6568,-2.7201,-85.2502,0.0594,-0.0251,0.0000,-0.1765,0.8724,56.5828,-0.5737,1.1143,46.7940,-0.3972,0.2419,-9.7888,-16.4613,-19.2362,-36.2138,0.309701,-0.023098,0.005459,-0.950538,97045.69,281.42,423.80,2.2857
3,3,3,3,-61.0450,-2.7050,-82.8593,0.0691,-0.0284,0.0000,-0.1883,0.8210,56.3718,-0.5930,1.0449,46.5829,-0.4047,0.2239,-9.7889,-16.4890,-19.3027,-36.1657,0.309725,-0.023177,0.004466,-0.950533,97003.15,281.40,427.45,2.3143
3,3,3,3,-63.7830,-2.6927,-80.1183,0.0773,-0.0313,0.0000,-0.2066,0.7493,56.1596,-0.6196,0.9527,46.3706,-0.4130,0.2034,-9.7890,-16.5198,-19.3784,-36.1110,0.309751,-0.023258,0.003338,-0.950527,96960.08,281.39,431.15,2.3429
3,3,3,3,-66.8085,-2.6859,-77.0895,0.0836,-0.0337,0.0000,-0.2311,0.6592,55.9459,-0.6532,0.8400,46.1569,-0.4221,0.1808,-9.7891,-16.5533,-19.4615,-36.0509,0.309779,-0.023343,0.002100,-0.950520,96916.47,281.37,434.89,2.3714
3,3,3,3,-70.0386,-2.6870,-73.8558,0.0878,-0.0355,0.0000,-0.2612,0.5535,55.7311,-0.6930,0.7104,45.9421,-0.4318,0.1568,-9.7890,-16.5889,-19.5498,-35.9866,0.309808,-0.023433,0.000781,-0.950510,96872.34,281.36,438.67,2.4000
3,3,3,3,-73.3743,-2.6975,-70.5164,0.0897,-0.0367,0.0000,-0.2959,0.4359,55.5149,-0.7378,0.5678,45.7260,-0.4419,0.1320,-9.7889,-16.6260,-19.6411,-35.9195,0.309838,-0.023530,-0.000587,-0.950498,96827.67,281.34,442.51,2.4286
3,3,3,3,-76.7075,-2.7181,-67.1795,0.0894,-0.0373,0.0000,-0.3342,0.3103,55.2975,-0.7865,0.4171,45.5087,-0.4523,0.1069,-9.7888,-16.6639,-19.7331,-35.8514,0.309868,-0.023636,-0.001970,-0.950484,96782.48,281.33,446.38,2.4571
3,3,3,3,-79.9316,-2.7486,-63.9518,0.0868,-0.0371,0.0000,-0.3749,0.1814,55.0788,-0.8376,0.2636,45.2903,-0.4627,0.0822,-9.7885,-16.7020,-19.8235,-35.7836,0.309896,-0.023751,-0.003334,-0.950468,96736.77,281.31,450.31,2.4857
3,3,3,3,-82.9507,-2.7874,-60.9291,0.0821,-0.0363,0.0000,-0.4164,0.0542,54.8587,-0.8893,0.1127,45.0706,-0.4730,0.0585,-9.7882,-16.7395,-19.9099,-35.7180,0.309923,-0.023875,-0.004645,-0.950451,96690.53,281.29,454.27,2.5143
3,3,3,3,-85.6875,-2.8326,-58.1890,0.0754,-0.0348,0.0000,-0.4572,-0.0664,54.6375,-0.9401,-0.0300,44.8498,-0.4829,0.0364,-9.7878,-16.7757,-19.9903,-35.6559,0.309947,-0.024008,-0.005874,-0.950432,96643.77,281.28,458.28,2.5429
3,3,3,3,-88.0870,-2.8815,-55.7865,0.0672,-0.0327,0.0000,-0.4959,-0.1754,54.4149,-0.9883,-0.1590,44.6275,-0.4924,0.0164,-9.7873,-16.8101,-20.0630,-35.5987,0.309969,-0.024151,-0.006994,-0.950414,96596.50,281.26,462.34,2.5714
3,3,3,3,-90.1169,-2.9315,-53.7540,0.0576,-0.0302,-0.0000,-0.5310,-0.2684,54.1910,-1.0321,-0.2694,44.4041,-0.5012,-0.0010,-9.7869,-16.8421,-20.1264,-35.5477,0.309987,-0.024302,-0.007981,-0.950397,96548.70,281.24,466.44,2.6000
3,3,3,3,-91.7652,-2.9800,-52.1035,0.0472,-0.0273,-0.0000,-0.5610,-0.3414,53.9886,-1.0702,-0.3571,44.2021,-0.5092,-0.0157,-9.7865,-16.8713,-20.1796,-35.5035,0.310002,-0.024461,-0.008821,-0.950380,96500.40,281.23,470.58,2.6286
3,3,3,3,-93.0374,-3.0251,-50.8296,0.0365,-0.0242,-0.0000,-0.5848,-0.3913,53.8140,-1.1012,-0.4187,44.0280,-0.5164,-0.0274,-9.7860,-16.8974,-20.2220,-35.4668,0.310013,-0.024625,-0.009504,-0.950366,96451.58,281.21,474.77,2.6571
3,3,3,3,-93.9530,-3.0651,-49.9127,0.0259,-0.0210,-0.0000,-0.6015,-0.4160,53.6381,-1.1242,-0.4521,43.8525,-0.5227,-0.0361,-9.7857,-16.9203,-20.2536,-35.4378,0.310021,-0.024794,-0.010028,-0.950354,96402.25,281.19,479.00,2.6857
3,3,3,3,-94.5424,-3.0993,-49.3225,0.0160,-0.0178,-0.0000,-0.6106,-0.4151,53.4611,-1.1388,-0.4571,43.6758,-0.5282,-0.0420,-9.7853,-16.9399,-20.2747,-35.4163,0.310025,-0.024965,-0.010397,-0.950344,96352.42,281.18,483.28,2.7143
3,3,3,3,-94.8451,-3.1275,-49.0192,0.0071,-0.0149,-0.0000,-0.6119,-0.3883,53.2831,-1.1446,-0.4335,43.4980,-0.5327,-0.0452,-9.7851,-16.9564,-20.2862,-35.4016,0.310027,-0.025136,-0.010625,-0.950336,96302.08,281.16,487.60,2.7429
3,3,3,3,-94.9088,-3.1502,-48.9555,-0.0002,-0.0123,-0.0000,-0.6054,-0.3374,53.1037,-1.1419,-0.3835,43.3188,-0.5365,-0.0461,-9.7848,-16.9701,-20.2895,-35.3931,0.310026,-0.025306,-0.010730,-0.950331,96251.23,281.14,491.96,2.7714
3,3,3,3,-94.7875,-3.1680,-49.0769,-0.0057,-0.0102,-0.0000,-0.5917,-0.2654,52.9232,-1.1314,-0.3106,43.1386,-0.5397,-0.0452,-9.7847,-16.9814,-20.2863,-35.3894,0.310023,-0.025472,-0.010737,-0.950327,96199.88,281.12,496.37,2.8000
3,3,3,3,-94.5409,-3.1823,-49.3240,-0.0091,-0.0087,-0.0000,-0.5719,-0.1762,52.7417,-1.1142,-0.2192,42.9572,-0.5423,-0.0431,-9.7845,-16.9908,-20.2785,-35.3892,0.310019,-0.025634,-0.010675,-0.950325,96148.03,281.11,500.82,2.8286
3,3,3,3,-94.2320,-3.1944,-49.6333,-0.0103,-0.0077,-0.0000,-0.5471,-0.0749,52.5588,-1.0917,-0.1152,42.7744,-0.5446,-0.0403,-9.7844,-16.9991,-20.2685,-35.3909,0.310014,-0.025788,-0.010576,-0.950323,96095.67,281.09,505.31,2.8571
3,3,3,3,-93.9250,-3.2056,-49.9408,-0.0093,-0.0075,-0.0000,-0.5190,0.0326,52.3749,-1.0657,-0.0049,42.5907,-0.5467,-0.0375,-9.7843,-17.0067,-20.2583,-35.3929,0.310009,-0.025935,-0.010474,-0.950322,96042.82,281.07,509.84,2.8857
3,3,3,3,-93.6828,-3.2173,-50.1833,-0.0060,-0.0079,-0.0000,-0.4894,0.1402,52.1935,-1.0383,0.1049,42.4093,-0.5488,-0.0353,-9.7841,-17.0144,-20.2504,-35.3936,0.310005,-0.026074,-0.010402,-0.950320,95989.48,281.05,514.42,2.9143
3,3,3,3,-93.5635,-3.2307,-50.3029,-0.0008,-0.0090,-0.0000,-0.4602,0.2415,52.0629,-1.0113,0.2072,42.2790,-0.5512,-0.0343,-9.7840,-17.0229,-20.2467,-35.3915,0.310003,-0.026204,-0.010391,-0.950318,95935.63,281.03,519.04,2.9429
3,3,3,3,-93.6161,-3.2469,-50.2502,0.0059,-0.0106,-0.0000,-0.4332,0.3306,51.9496,-0.9871,0.2955,42.1658,-0.5539,-0.0350,-9.7838,-17.0327,-20.2492,-35.3853,0.310002,-0.026326,-0.010467,-0.950314,95881.30,281.01,523.70,2.9714
3,3,3,3,-93.8787,-3.2671,-49.9871,0.0141,-0.0128,0.0000,-0.4121,0.3971,51.8354,-0.9693,0.3593,42.0518,-0.5572,-0.0378,-9.7836,-17.0445,-20.2591,-35.3738,0.310004,-0.026441,-0.010654,-0.950308,95826.47,280.99,528.40,3.0000
3,3,3,3,-94.3730,-3.2920,-49.4920,0.0224,-0.0151,0.0000,-0.4130,0.4006,51.7196,-0.9741,0.3576,41.9362,-0.5611,-0.0429,-9.7833,-17.0586,-20.2776,-35.3562,0.310009,-0.026549,-0.010965,-0.950300,95771.15,280.98,533.15,3.0286
3,3,3,3,-95.0744,-3.3218,-48.7894,0.0297,-0.0170,0.0000,-0.4273,0.3623,51.6026,-0.9929,0.3121,41.8196,-0.5656,-0.0502,-9.7830,-17.0748,-20.3040,-35.3332,0.310016,-0.026651,-0.011391,-0.950289,95715.34,280.96,537.94,3.0571
3,3,3,3,-95.9402,-3.3559,-47.9222,0.0355,-0.0185,0.0000,-0.4479,0.3007,51.4848,-1.0185,0.2413,41.7022,-0.5706,-0.0594,-9.7827,-17.0927,-20.3370,-35.3054,0.310026,-0.026748,-0.011914,-0.950277,95659.04,280.94,542.77,3.0857
3,3,3,3,-96.9188,-3.3938,-46.9419,0.0395,-0.0195,-0.0000,-0.4738,0.2192,51.3660,-1.0496,0.1493,41.5838,-0.5759,-0.0699,-9.7823,-17.1119,-20.3749,-35.2741,0.310037,-0.026840,-0.012509,-0.950263,95602.25,280.92,547.64,3.1143
3,3,3,3,-97.9548,-3.4345,-45.9041,0.0415,-0.0200,-0.0000,-0.5034,0.1232,51.2463,-1.0848,0.0419,41.4645,-0.5814,-0.0812,-9.7819,-17.1318,-20.4158,-35.2407,0.310049,-0.026929,-0.013149,-0.950248,95544.98,280.90,552.55,3.1429
3,3,3,3,-98.9927,-3.4769,-44.8642,0.0415,-0.0198,0.0000,-0.5350,0.0184,51.1257,-1.1220,-0.0745,41.3443,-0.5870,-0.0929,-9.7814,-17.1518,-20.4577,-35.2065,0.310061,-0.027015,-0.013803,-0.950232,95487.22,280.88,557.51,3.1714
3,3,3,3,-99.9811,-3.5194,-43.8741,0.0395,-0.0192,0.0000,-0.5669,-0.0885,51.0058,-1.1594,-0.1928,41.2249,-0.5924,-0.1043,-9.7809,-17.1714,-20.4985,-35.1730,0.310073,-0.027100,-0.014442,-0.950217,95428.97,280.86,562.51,3.2000
3,3,3,3,-100.8747,-3.5605,-42.9787,0.0357,-0.0180,-0.0000,-0.5972,-0.1908,50.9012,-1.1948,-0.3056,41.1207,-0.5976,-0.1148,-9.7805,-17.1900,-20.5364,-35.1417,0.310084,-0.027185,-0.015037,-0.950202,95370.24,280.84,567.55,3.2286
3,3,3,3,-101.6381,-3.5988,-42.2138,0.0304,-0.0164,-0.0000,-0.6240,-0.2819,50.7997,-1.2264,-0.4060,41.0196,-0.6025,-0.1241,-9.7801,-17.2073,-20.5697,-35.1136,0.310093,-0.027272,-0.015563,-0.950188,95311.03,280.82,572.63,3.2571
3,3,3,3,-102.2462,-3.6329,-41.6045,0.0240,-0.0146,-0.0000,-0.6457,-0.3559,50.6971,-1.2525,-0.4876,40.9174,-0.6068,-0.1317,-9.7797,-17.2228,-20.5970,-35.0899,0.310100,-0.027362,-0.016002,-0.950175,95251.34,280.80,577.75,3.2857
3,3,3,3,-102.6848,-3.6618,-41.1650,0.0169,-0.0126,-0.0000,-0.6612,-0.4083,50.5935,-1.2718,-0.5457,40.8141,-0.6106,-0.1374,-9.7794,-17.2363,-20.6174,-35.0711,0.310105,-0.027455,-0.016340,-0.950165,95191.16,280.77,582.91,3.3143
3,3,3,3,-102.9506,-3.6851,-40.8987,0.0097,-0.0105,-0.0000,-0.6697,-0.4358,50.4889,-1.2835,-0.5770,40.7099,-0.6138,-0.1412,-9.7791,-17.2479,-20.6307,-35.0574,0.310107,-0.027553,-0.016572,-0.950158,95130.51,280.75,588.11,3.3429
3,3,3,3,-103.0508,-3.7026,-40.7983,0.0029,-0.0087,-0.0000,-0.6708,-0.4372,50.3834,-1.2873,-0.5801,40.6045,-0.6165,-0.1429,-9.7789,-17.2574,-20.6370,-35.0489,0.310107,-0.027655,-0.016700,-0.950152,95069.38,280.73,593.36,3.3714
3,3,3,3,-103.0020,-3.7150,-40.8472,-0.0031,-0.0070,-0.0000,-0.6648,-0.4128,50.2768,-1.2835,-0.5557,40.4981,-0.6187,-0.1429,-9.7787,-17.2652,-20.6367,-35.0451,0.310106,-0.027762,-0.016732,-0.950149,95007.77,280.71,598.64,3.4000
3,3,3,3,-102.8297,-3.7231,-41.0198,-0.0078,-0.0058,-0.0000,-0.6525,-0.3651,50.1692,-1.2730,-0.5064,40.3906,-0.6204,-0.1413,-9.7786,-17.2715,-20.6311,-35.0451,0.310102,-0.027873,-0.016685,-0.950148,94946.86,280.68,603.97,3.4286
3,3,3,3,-102.5665,-3.7282,-41.2836,-0.0110,-0.0049,-0.0000,-0.6351,-0.2982,50.0608,-1.2571,-0.4369,40.2822,-0.6219,-0.1386,-9.7785,-17.2768,-20.6215,-35.0481,0.310097,-0.027987,-0.016579,-0.950148,94885.65,280.65,609.34,3.4571
3,3,3,3,-102.2504,-3.7316,-41.6004,-0.0124,-0.0046,-0.0000,-0.6142,-0.2176,49.9520,-1.2375,-0.3529,40.1735,-0.6232,-0.1353,-9.7785,-17.2815,-20.6096,-35.0526,0.310091,-0.028104,-0.016439,-0.950149,94823.97,280.62,614.75,3.4857
3,3,3,3,-101.9220,-3.7348,-41.9294,-0.0121,-0.0048,0.0000,-0.5917,-0.1299,49.8472,-1.2162,-0.2618,40.0687,-0.6245,-0.1319,-9.7784,-17.2861,-20.5971,-35.0575,0.310085,-0.028222,-0.016292,-0.950150,94761.84,280.59,620.19,3.5143
3,3,3,3,-101.6221,-3.7393,-42.2300,-0.0100,-0.0054,-0.0000,-0.5695,-0.0422,49.7424,-1.1955,-0.1710,39.9640,-0.6260,-0.1287,-9.7784,-17.2912,-20.5859,-35.0615,0.310079,-0.028341,-0.016163,-0.950151,94699.24,280.56,625.68,3.5429
3,3,3,3,-101.3878,-3.7461,-42.4648,-0.0065,-0.0065,-0.0000,-0.5496,0.0384,49.6366,-1.1772,-0.0880,39.8584,-0.6276,-0.1264,-9.7783,-17.2971,-20.5775,-35.0633,0.310074,-0.028458,-0.016076,-0.950150,94636.18,280.53,631.21,3.5714
3,3,3,3,-101.2498,-3.7562,-42.6031,-0.0018,-0.0078,-0.0000,-0.5338,0.1054,49.5300,-1.1634,-0.0198,39.7519,-0.6296,-0.1252,-9.7781,-17.3042,-20.5732,-35.0622,0.310071,-0.028574,-0.016050,-0.950148,94572.66,280.50,636.78,3.6000
3,3,3,3,-101.2296,-3.7702,-42.6233,0.0036,-0.0094,-0.0000,-0.5235,0.1536,49.4225,-1.1555,0.0282,39.6445,-0.6320,-0.1255,-9.7780,-17.3128,-20.5741,-35.0573,0.310069,-0.028686,-0.016100,-0.950145,94508.68,280.47,642.39,3.6286
3,3,3,3,-101.3375,-3.7886,-42.5152,0.0093,-0.0109,-0.0000,-0.5196,0.1791,49.3141,-1.1545,0.0518,39.5364,-0.6348,-0.1273,-9.7777,-17.3229,-20.5805,-35.0484,0.310070,-0.028796,-0.016233,-0.950139,94444.24,280.44,648.04,3.6571
3,3,3,3,-101.5715,-3.8113,-42.2806,0.0148,-0.0124,0.0000,-0.5226,0.1801,49.2048,-1.1607,0.0494,39.4274,-0.6381,-0.1307,-9.7775,-17.3345,-20.5925,-35.0354,0.310072,-0.028901,-0.016448,-0.950131,94379.35,280.40,653.73,3.6857
3,3,3,3,-101.9191,-3.8380,-41.9324,0.0195,-0.0137,0.0000,-0.5321,0.1574,49.0947,-1.1739,0.0219,39.3176,-0.6418,-0.1355,-9.7772,-17.3476,-20.6097,-35.0187,0.310076,-0.029002,-0.016740,-0.950122,94314.00,280.37,659.46,3.7143
3,3,3,3,-102.3576,-3.8682,-41.4929,0.0233,-0.0147,0.0000,-0.5476,0.1127,48.9824,-1.1934,-0.0288,39.2056,-0.6457,-0.1415,-9.7768,-17.3618,-20.6311,-34.9989,0.310081,-0.029100,-0.017095,-0.950111,94248.19,280.34,665.23,3.7429
3,3,3,3,-102.8578,-3.9010,-40.9914,0.0257,-0.0153,0.0000,-0.5678,0.0505,48.8502,-1.2177,-0.0979,39.0738,-0.6499,-0.1484,-9.7764,-17.3768,-20.6557,-34.9768,0.310088,-0.029195,-0.017496,-0.950098,94181.93,280.31,671.05,3.7714
3,3,3,3,-103.3867,-3.9354,-40.4613,0.0267,-0.0155,0.0000,-0.5910,-0.0238,48.7062,-1.2453,-0.1795,38.9302,-0.6543,-0.1557,-9.7760,-17.3921,-20.6819,-34.9535,0.310095,-0.029288,-0.017921,-0.950085,94115.22,280.27,676.90,3.8000
3,3,3,3,-103.9108,-3.9701,-39.9360,0.0261,-0.0152,0.0000,-0.6153,-0.1032,48.5613,-1.2739,-0.2663,38.7857,-0.6586,-0.1631,-9.7755,-17.4074,-20.7083,-34.9301,0.310102,-0.029379,-0.018349,-0.950072,94048.05,280.24,682.78,3.8286
3,3,3,3,-104.3994,-4.0040,-39.4462,0.0241,-0.0146,0.0000,-0.6388,-0.1807,48.4154,-1.3015,-0.3509,38.6403,-0.6627,-0.1702,-9.7751,-17.4223,-20.7334,-34.9076,0.310109,-0.029471,-0.018758,-0.950059,93980.44,280.21,688.71,3.8571
3,3,3,3,-104.8272,-4.0358,-39.0174,0.0210,-0.0137,0.0000,-0.6596,-0.2495,48.2684,-1.3262,-0.4260,38.4937,-0.6667,-0.1765,-9.7747,-17.4364,-20.7560,-34.8870,0.310115,-0.029563,-0.019129,-0.950047,93912.37,280.17,694.68,3.8857
3,3,3,3,-105.1759,-4.0647,-38.6678,0.0171,-0.0126,0.0000,-0.6760,-0.3037,48.1204,-1.3463,-0.4855,38.3460,-0.6704,-0.1818,-9.7744,-17.4495,-20.7750,-34.8690,0.310119,-0.029657,-0.019447,-0.950036,93843.86,280.14,700.69,3.9143
3,3,3,3,-105.4353,-4.0901,-38.4077,0.0128,-0.0114,0.0000,-0.6869,-0.3387,47.9714,-1.3606,-0.5247,38.1974,-0.6737,-0.1860,-9.7740,-17.4614,-20.7899,-34.8540,0.310122,-0.029753,-0.019703,-0.950027,93774.91,280.11,706.74,3.9429
3,3,3,3,-105.6038,-4.1117,-38.2388,0.0085,-0.0102,-0.0000,-0.6918,-0.3522,47.8173,-1.3685,-0.5412,38.0435,-0.6767,-0.1890,-9.7737,-17.4720,-20.8004,-34.8422,0.310124,-0.029852,-0.019895,-0.950019,93705.51,280.07,712.82,3.9714
3,3,3,3,-105.6879,-4.1298,-38.1545,0.0046,-0.0091,-0.0000,-0.6906,-0.3439,47.6337,-1.3700,-0.5347,37.8602,-0.6794,-0.1908,-9.7735,-17.4815,-20.8069,-34.8334,0.310124,-0.029953,-0.020027,-0.950013,93635.67,280.04,718.95,4.0000
3,3,3,3,-105.7011,-4.1448,-38.1412,0.0016,-0.0083,-0.0000,-0.6839,-0.3155,47.4427,-1.3657,-0.5072,37.6694,-0.6818,-0.1917,-9.7733,-17.4901,-20.8098,-34.8272,0.310122,-0.030057,-0.020106,-0.950009,93565.38,280.00,725.11,4.0286
3,3,3,3,-105.6627,-4.1576,-38.1797,-0.0004,-0.0077,-0.0000,-0.6729,-0.2708,47.2506,-1.3569,-0.4626,37.4775,-0.6840,-0.1918,-9.7731,-17.4980,-20.8102,-34.8228,0.310120,-0.030163,-0.020148,-0.950005,93494.66,279.97,731.31,4.0571
3,3,3,3,-105.5961,-4.1692,-38.2465,-0.0012,-0.0076,-0.0000,-0.6590,-0.2149,47.0577,-1.3451,-0.4064,37.2847,-0.6862,-0.1915,-9.7730,-17.5055,-20.8092,-34.8195,0.310118,-0.030271,-0.020169,-0.950002,93423.50,279.93,737.55,4.0857
3,3,3,3,-105.5265,-4.1807,-38.3163,-0.0007,-0.0078,-0.0000,-0.6464,-0.1584,46.8637,-1.3347,-0.3497,37.0910,-0.6883,-0.1912,-9.7728,-17.5131,-20.8081,-34.8162,0.310115,-0.030380,-0.020188,-0.949999,93351.91,279.90,743.83,4.1143
3,3,3,3,-105.4751,-4.1931,-38.3679,0.0004,-0.0080,-0.0000,-0.6535,-0.1376,46.6695,-1.3440,-0.3287,36.8969,-0.6905,-0.1912,-9.7726,-17.5209,-20.8078,-34.8123,0.310113,-0.030488,-0.020220,-0.949996,93279.88,279.86,750.15,4.1429
3,3,3,3,-105.4473,-4.2061,-38.3957,0.0015,-0.0079,-0.0000,-0.6675,-0.1325,46.5538,-1.3602,-0.3239,36.7813,-0.6927,-0.1914,-9.7724,-17.5288,-20.8087,-34.8076,0.310111,-0.030592,-0.020268,-0.949992,93207.41,279.83,756.50,4.1714
3,3,3,3,-105.4441,-4.2193,-38.3989,0.0025,-0.0077,-0.0000,-0.6813,-0.1338,46.4979,-1.3762,-0.3257,36.7257,-0.6949,-0.1920,-9.7723,-17.5365,-20.8106,-34.8024,0.310109,-0.030689,-0.020330,-0.949988,93134.52,279.79,762.89,4.2000
3,3,3,3,-105.4635,-4.2323,-38.3794,0.0034,-0.0072,-0.0000,-0.6937,-0.1409,46.3795,-1.3906,-0.3338,36.6074,-0.6970,-0.1928,-9.7721,-17.5438,-20.8135,-34.7968,0.310109,-0.030777,-0.020403,-0.949984,93061.20,279.76,769.32,4.2286
3,3,3,3,-105.5015,-4.2448,-38.3413,0.0040,-0.0066,-0.0000,-0.7035,-0.1531,45.7894,-1.4025,-0.3469,36.0175,-0.6989,-0.1938,-9.7719,-17.5506,-20.8171,-34.7910,0.310108,-0.030854,-0.020484,-0.949980,92987.45,279.72,775.79,4.2571
3,3,3,3,-105.5523,-4.2566,-38.2904,0.0042,-0.0059,-0.0000,-0.7100,-0.1688,45.0795,-1.4107,-0.3638,35.3078,-0.7007,-0.1950,-9.7717,-17.5568,-20.8212,-34.7853,0.310108,-0.030921,-0.020568,-0.949976,92913.27,279.68,782.29,4.2857
3,3,3,3,-105.6088,-4.2673,-38.2337,0.0042,-0.0053,-0.0000,-0.7127,-0.1862,44.3684,-1.4150,-0.3824,34.5968,-0.7022,-0.1962,-9.7716,-17.5624,-20.8253,-34.7799,0.310108,-0.030978,-0.020650,-0.949972,92838.69,279.65,788.83,4.3143
3,3,3,3,-105.6640,-4.2770,-38.1784,0.0038,-0.0047,-0.0000,-0.7116,-0.2032,43.6007,-1.4153,-0.4005,33.8293,-0.7036,-0.1973,-9.7714,-17.5673,-20.8292,-34.7749,0.310109,-0.031029,-0.020727,-0.949969,92763.69,279.61,795.41,4.3429
3,3,3,3,-105.7113,-4.2856,-38.1310,0.0032,-0.0043,-0.0000,-0.7073,-0.2180,42.4036,-1.4122,-0.4163,32.6324,-0.7049,-0.1983,-9.7713,-17.5717,-20.8327,-34.7704,0.310109,-0.031075,-0.020795,-0.949965,92688.30,279.57,802.02,4.3714
3,3,3,3,-105.7454,-4.2935,-38.0968,0.0024,-0.0041,-0.0000,-0.7004,-0.2291,41.1047,-1.4065,-0.4282,31.3335,-0.7061,-0.1991,-9.7712,-17.5758,-20.8354,-34.7665,0.310109,-0.031119,-0.020852,-0.949963,92612.52,279.54,808.66,4.4000
3,3,3,3,-105.7629,-4.3008,-38.0792,0.0016,-0.0041,-0.0000,-0.6922,-0.2353,39.8050,-1.3994,-0.4349,30.0339,-0.7072,-0.1996,-9.7711,-17.5798,-20.8373,-34.7632,0.310109,-0.031165,-0.020896,-0.949960,92536.36,279.50,815.34,4.4286
3,3,3,3,-105.7624,-4.3078,-38.0797,0.0007,-0.0042,-0.0000,-0.6838,-0.2361,38.5028,-1.3921,-0.4361,28.7318,-0.7083,-0.1999,-9.7709,-17.5838,-20.8383,-34.7603,0.310108,-0.031216,-0.020930,-0.949958,92460.73,279.46,822.05,4.4571
3,3,3,3,-105.7448,-4.3148,-38.0973,0.0001,-0.0045,-0.0000,-0.6764,-0.2318,36.6420,-1.3860,-0.4319,26.8712,-0.7095,-0.2000,-9.7708,-17.5881,-20.8387,-34.7578,0.310107,-0.031273,-0.020954,-0.949956,92385.55,279.42,828.79,4.4857
3,3,3,3,-105.7129,-4.3221,-38.1294,-0.0004,-0.0049,-0.0000,-0.6712,-0.2233,34.4169,-1.3820,-0.4233,24.6462,-0.7109,-0.2000,-9.7707,-17.5927,-20.8384,-34.7555,0.310105,-0.031338,-0.020973,-0.949954,92310.05,279.38,835.56,4.5143
3,3,3,3,-105.6710,-4.3300,-38.1713,-0.0007,-0.0054,-0.0000,-0.6687,-0.2116,32.1903,-1.3810,-0.4115,22.4197,-0.7123,-0.1998,-9.7706,-17.5978,-20.8378,-34.7531,0.310103,-0.031411,-0.020988,-0.949952,92234.25,279.35,842.36,4.5429
3,3,3,3,-105.6245,-4.3386,-38.2180,-0.0006,-0.0059,-0.0000,-0.6694,-0.1987,30.2836,-1.3833,-0.3983,20.5131,-0.7139,-0.1996,-9.7705,-17.6033,-20.8371,-34.7505,0.310101,-0.031490,-0.021004,-0.949950,92158.17,279.31,849.18,4.5714
3,3,3,3,-105.5789,-4.3480,-38.2638,-0.0003,-0.0063,-0.0000,-0.6732,-0.1861,29.2370,-1.3887,-0.3856,19.4666,-0.7156,-0.1995,-9.7703,-17.6093,-20.8365,-34.7476,0.310099,-0.031575,-0.021024,-0.949947,92081.82,279.27,856.03,4.6000
3,3,3,3,-105.5391,-4.3580,-38.3036,0.0001,-0.0066,-0.0000,-0.6795,-0.1754,28.2370,-1.3969,-0.3749,18.4668,-0.7174,-0.1995,-9.7702,-17.6157,-20.8363,-34.7444,0.310097,-0.031663,-0.021051,-0.949944,92005.20,279.23,862.90,4.6286
3,3,3,3,-105.5092,-4.3687,-38.3336,0.0007,-0.0067,-0.0000,-0.6877,-0.1680,27.2372,-1.4070,-0.3675,17.4671,-0.7192,-0.1996,-9.7700,-17.6222,-20.8366,-34.7407,0.310096,-0.031751,-0.021086,-0.949941,91928.34,279.19,869.79,4.6571
3,3,3,3,-105.4917,-4.3798,-38.3512,0.0013,-0.0067,-0.0000,-0.6969,-0.1645,26.2374,-1.4180,-0.3644,16.4675,-0.7211,-0.1999,-9.7698,-17.6288,-20.8376,-34.7366,0.310094,-0.031838,-0.021129,-0.949938,91851.24,279.15,876.70,4.6857
3,3,3,3,-105.4872,-4.3910,-38.3558,0.0019,-0.0066,-0.0000,-0.7061,-0.1654,25.2384,-1.4290,-0.3657,15.4687,-0.7230,-0.2003,-9.7697,-17.6354,-20.8391,-34.7321,0.310093,-0.031921,-0.021181,-0.949934,91773.90,279.11,883.64,4.7143
3,3,3,3,-105.4947,-4.4021,-38.3482,0.0024,-0.0063,-0.0000,-0.7141,-0.1701,24.1606,-1.4389,-0.3711,14.3911,-0.7248,-0.2009,-9.7695,-17.6417,-20.8412,-34.7275,0.310092,-0.032000,-0.021239,-0.949931,91696.33,279.07,890.59,4.7429
3,3,3,3,-105.5120,-4.4130,-38.3308,0.0027,-0.0060,-0.0000,-0.7205,-0.1780,22.8436,-1.4470,-0.3797,13.0742,-0.7265,-0.2016,-9.7693,-17.6478,-20.8437,-34.7227,0.310091,-0.032072,-0.021301,-0.949927,91618.56,279.03,897.56,4.7714
3,3,3,3,-105.5355,-4.4234,-38.3073,0.0028,-0.0057,-0.0000,-0.7245,-0.1880,21.5052,-1.4526,-0.3904,11.7360,-0.7281,-0.2024,-9.7692,-17.6535,-20.8463,-34.7180,0.310090,-0.032139,-0.021364,-0.949923,91540.58,278.99,904.56,4.8000
3,3,3,3,-105.5612,-4.4333,-38.2815,0.0027,-0.0053,-0.0000,-0.7261,-0.1985,20.1674,-1.4557,-0.4017,10.3983,-0.7296,-0.2032,-9.7690,-17.6589,-20.8490,-34.7135,0.310090,-0.032201,-0.021426,-0.949920,91462.42,278.95,911.56,4.8286
3,3,3,3,-105.5852,-4.4426,-38.2574,0.0025,-0.0050,-0.0000,-0.7253,-0.2083,18.8309,-1.4564,-0.4122,9.0620,-0.7311,-0.2039,-9.7689,-17.6640,-20.8516,-34.7092,0.310090,-0.032259,-0.021485,-0.949917,91384.07,278.91,918.59,4.8571
3,3,3,3,-105.6040,-4.4514,-38.2386,0.0021,-0.0049,-0.0000,-0.7227,-0.2162,17.4887,-1.4552,-0.4207,7.7200,-0.7324,-0.2046,-9.7688,-17.6688,-20.8538,-34.7052,0.310089,-0.032316,-0.021538,-0.949914,91305.57,278.87,925.63,4.8857
3,3,3,3,-105.6151,-4.4598,-38.2275,0.0017,-0.0048,-0.0000,-0.7190,-0.2213,16.0484,-1.4527,-0.4264,6.2798,-0.7338,-0.2051,-9.7686,-17.6735,-20.8556,-34.7015,0.310089,-0.032373,-0.021585,-0.949911,91226.91,278.83,932.68,4.9143
3,3,3,3,-105.6171,-4.4680,-38.2254,0.0012,-0.0048,-0.0000,-0.7148,-0.2232,14.5767,-1.4499,-0.4287,4.8082,-0.7351,-0.2055,-9.7685,-17.6782,-20.8569,-34.6982,0.310088,-0.032432,-0.021626,-0.949908,91148.12,278.79,939.74,4.9429
3,3,3,3,-105.6100,-4.4761,-38.2325,0.0008,-0.0050,0.0000,-0.7111,-0.2219,13.0919,-1.4475,-0.4277,3.3235,-0.7365,-0.2058,-9.7684,-17.6830,-20.8579,-34.6950,0.310087,-0.032494,-0.021661,-0.949906,91069.19,278.75,946.82,4.9714
3,3,3,3,-105.5950,-4.4844,-38.2476,0.0005,-0.0052,0.0000,-0.7084,-0.2179,10.7817,-1.4463,-0.4239,1.0134,-0.7379,-0.2060,-9.7682,-17.6879,-20.8585,-34.6919,0.310086,-0.032559,-0.021693,-0.949903,90990.16,278.71,953.91,5.0000
3,3,3,3,-105.5741,-4.4929,-38.2685,0.0004,-0.0054,-0.0000,-0.7076,-0.2122,7.8207,-1.4469,-0.4183,-1.9474,-0.7394,-0.2061,-9.7681,-17.6931,-20.8588,-34.6889,0.310084,-0.032629,-0.021722,-0.949901,90911.05,278.67,961.00,5.0286
3,3,3,3,-105.5500,-4.5018,-38.2927,0.0003,-0.0056,0.0000,-0.7130,-0.2165,4.9172,-1.4539,-0.4227,-4.8507,-0.7409,-0.2062,-9.7680,-17.6986,-20.8591,-34.6857,0.310083,-0.032703,-0.021751,-0.949898,90831.88,278.63,968.10,5.0571
3,3,3,3,-105.5206,-4.5108,-38.3222,-0.0001,-0.0057,0.0000,-0.7237,-0.2293,2.0858,-1.4662,-0.4355,-7.6820,-0.7425,-0.2062,-9.7678,-17.7041,-20.8591,-34.6827,0.310081,-0.032779,-0.021778,-0.949895,90752.68,278.59,975.20,5.0857
3,3,3,3,-105.4828,-4.5195,-38.3602,-0.0006,-0.0055,0.0000,-0.7343,-0.2392,-0.7402,-1.4783,-0.4454,-10.5078,-0.7441,-0.2061,-9.7677,-17.7096,-20.8587,-34.6799,0.310079,-0.032857,-0.021798,-0.949893,90673.47,278.55,982.30,5.1143
3,3,3,3,-105.4347,-4.5276,-38.4084,-0.0012,-0.0053,0.0000,-0.7436,-0.2451,-3.5608,-1.4892,-0.4510,-13.3284,-0.7456,-0.2058,-9.7675,-17.7149,-20.8578,-34.6776,0.310077,-0.032934,-0.021810,-0.949891,90594.28,278.51,989.40,5.1429
3,3,3,3,-105.3760,-4.5350,-38.4672,-0.0019,-0.0049,-0.0000,-0.7507,-0.2464,-6.3756,-1.4976,-0.4518,-16.1430,-0.7470,-0.2054,-9.7674,-17.7199,-20.8562,-34.6759,0.310075,-0.033010,-0.021811,-0.949889,90515.14,278.47,996.50,5.1714
3,3,3,3,-105.3079,-4.5415,-38.5356,-0.0024,-0.0045,-0.0000,-0.7549,-0.2432,-9.1844,-1.5032,-0.4480,-18.9517,-0.7483,-0.2048,-9.7673,-17.7245,-20.8540,-34.6746,0.310072,-0.033083,-0.021803,-0.949887,90436.07,278.43,1003.59,5.2000
3,3,3,3,-105.2326,-4.5471,-38.6112,-0.0028,-0.0041,-0.0000,-0.7561,-0.2362,-11.9869,-1.5056,-0.4403,-21.7541,-0.7495,-0.2041,-9.7672,-17.7287,-20.8513,-34.6739,0.310069,-0.033153,-0.021786,-0.949886,90357.09,278.39,1010.67,5.2286
3,3,3,3,-105.1529,-4.5521,-38.6910,-0.0030,-0.0038,-0.0000,-0.7546,-0.2267,-14.4530,-1.5052,-0.4300,-24.2201,-0.7506,-0.2033,-9.7671,-17.7325,-20.8483,-34.6735,0.310067,-0.033220,-0.021764,-0.949885,90278.24,278.35,1017.74,5.2571
3,3,3,3,-105.0724,-4.5566,-38.7719,-0.0031,-0.0036,-0.0000,-0.7510,-0.2161,-16.4422,-1.5026,-0.4185,-26.2092,-0.7516,-0.2024,-9.7670,-17.7361,-20.8452,-34.6734,0.310064,-0.033283,-0.021739,-0.949884,90199.53,278.31,1024.80,5.2857
3,3,3,3,-104.9940,-4.5609,-38.8505,-0.0029,-0.0035,-0.0000,-0.7461,-0.2056,-19.8644,-1.4987,-0.4072,-29.6314,-0.7526,-0.2016,-9.7670,-17.7396,-20.8422,-34.6733,0.310062,-0.033345,-0.021714,-0.949883,90120.98,278.27,1031.84,5.3143
3,3,3,3,-104.9205,-4.5654,-38.9242,-0.0026,-0.0036,-0.0000,-0.7409,-0.1967,-21.6301,-1.4945,-0.3975,-31.3970,-0.7536,-0.2008,-9.7669,-17.7430,-20.8394,-34.6730,0.310059,-0.033405,-0.021692,-0.949883,90042.62,278.23,1038.87,5.3429
3,3,3,3,-104.8536,-4.5701,-38.9914,-0.0022,-0.0037,-0.0000,-0.7361,-0.1903,-21.5628,-1.4907,-0.3905,-31.3296,-0.7546,-0.2001,-9.7668,-17.7465,-20.8369,-34.6725,0.310057,-0.033465,-0.021675,-0.949882,89965.68,278.19,1045.87,5.3714
3,3,3,3,-104.7941,-4.5753,-39.0510,-0.0018,-0.0039,-0.0000,-0.7325,-0.1869,-21.4960,-1.4882,-0.3865,-31.2627,-0.7557,-0.1996,-9.7667,-17.7503,-20.8349,-34.6716,0.310055,-0.033525,-0.021665,-0.949880,89890.37,278.15,1052.86,5.4000
3,3,3,3,-104.7419,-4.5811,-39.1034,-0.0014,-0.0042,-0.0000,-0.7307,-0.1866,-21.4295,-1.4875,-0.3857,-31.1961,-0.7568,-0.1991,-9.7666,-17.7543,-20.8332,-34.6704,0.310053,-0.033588,-0.021662,-0.949879,89815.26,278.12,1059.84,5.4286
3,3,3,3,-104.6959,-4.5876,-39.1495,-0.0010,-0.0045,-0.0000,-0.7308,-0.1890,-21.3635,-1.4889,-0.3878,-31.1300,-0.7580,-0.1988,-9.7665,-17.7585,-20.8320,-34.6687,0.310051,-0.033652,-0.021665,-0.949877,89740.33,278.08,1066.79,5.4571
3,3,3,3,-104.6545,-4.5946,-39.1911,-0.0008,-0.0048,-0.0000,-0.7329,-0.1935,-21.2979,-1.4922,-0.3921,-31.0643,-0.7593,-0.1986,-9.7664,-17.7631,-20.8311,-34.6668,0.310049,-0.033720,-0.021674,-0.949875,89665.59,278.04,1073.73,5.4857
3,3,3,3,-104.6154,-4.6021,-39.2303,-0.0007,-0.0050,-0.0000,-0.7366,-0.1994,-21.2327,-1.4973,-0.3978,-30.9990,-0.7607,-0.1984,-9.7662,-17.7679,-20.8303,-34.6646,0.310047,-0.033789,-0.021686,-0.949873,89591.04,278.00,1080.65,5.5143
3,3,3,3,-104.5765,-4.6099,-39.2693,-0.0007,-0.0052,-0.0000,-0.7415,-0.2058,-21.1679,-1.5036,-0.4040,-30.9340,-0.7621,-0.1982,-9.7661,-17.7729,-20.8296,-34.6623,0.310045,-0.033861,-0.021700,-0.949871,89516.67,277.96,1087.56,5.5429
3,3,3,3,-104.5357,-4.6178,-39.3102,-0.0008,-0.0052,-0.0000,-0.7471,-0.2117,-21.1035,-1.5107,-0.4097,-30.8695,-0.7636,-0.1980,-9.7660,-17.7780,-20.8288,-34.6600,0.310043,-0.033935,-0.021713,-0.949868,89442.49,277.92,1094.44,5.5714
3,3,3,3,-104.4915,-4.6257,-39.3546,-0.0010,-0.0052,0.0000,-0.7527,-0.2164,-21.0396,-1.5178,-0.4142,-30.8054,-0.7650,-0.1977,-9.7659,-17.7831,-20.8278,-34.6578,0.310041,-0.034010,-0.021724,-0.949866,89368.50,277.89,1101.31,5.6000
3,3,3,3,-104.4427,-4.6333,-39.4035,-0.0013,-0.0051,0.0000,-0.7579,-0.2195,-20.9760,-1.5244,-0.4169,-30.7417,-0.7664,-0.1974,-9.7657,-17.7881,-20.8266,-34.6557,0.310039,-0.034084,-0.021731,-0.949864,89294.69,277.85,1108.16,5.6286
3,3,3,3,-104.3891,-4.6407,-39.4573,-0.0016,-0.0049,-0.0000,-0.7623,-0.2206,-20.9128,-1.5301,-0.4176,-30.6784,-0.7678,-0.1970,-9.7656,-17.7930,-20.8251,-34.6539,0.310037,-0.034159,-0.021733,-0.949862,89221.06,277.81,1115.00,5.6571
3,3,3,3,-104.3307,-4.6477,-39.5159,-0.0019,-0.0048,0.0000,-0.7654,-0.2198,-20.8501,-1.5346,-0.4163,-30.6155,-0.7692,-0.1965,-9.7655,-17.7978,-20.8233,-34.6524,0.310035,-0.034233,-0.021731,-0.949860,89147.62,277.77,1121.82,5.6857
3,3,3,3,-104.2684,-4.6543,-39.5784,-0.0021,-0.0046,-0.0000,-0.7673,-0.2172,-20.7877,-1.5378,-0.4132,-30.5531,-0.7705,-0.1959,-9.7654,-17.8023,-20.8212,-34.6511,0.310032,-0.034305,-0.021724,-0.949859,89074.36,277.73,1128.62,5.7143
3,3,3,3,-104.2033,-4.6605,-39.6438,-0.0023,-0.0044,-0.0000,-0.7680,-0.2133,-20.7257,-1.5398,-0.4086,-30.4910,-0.7717,-0.1953,-9.7653,-17.8067,-20.8190,-34.6500,0.310030,-0.034376,-0.021714,-0.949857,89001.28,277.70,1135.40,5.7429
3,3,3,3,-104.1367,-4.6665,-39.7105,-0.0024,-0.0043,-0.0000,-0.7676,-0.2085,-20.6641,-1.5406,-0.4032,-30.4293,-0.7730,-0.1947,-9.7652,-17.8110,-20.8166,-34.6491,0.310027,-0.034445,-0.021702,-0.949856,88928.39,277.66,1142.17,5.7714
3,3,3,3,-104.0702,-4.6724,-39.7773,-0.0023,-0.0042,-0.0000,-0.7665,-0.2035,-20.6026,-1.5406,-0.3975,-30.3677,-0.7741,-0.1940,-9.7651,-17.8152,-20.8142,-34.6482,0.310025,-0.034513,-0.021689,-0.949854,88855.68,277.62,1148.92,5.8000
3,3,3,3,-104.0050,-4.6781,-39.8427,-0.0023,-0.0042,-0.0000,-0.7649,-0.1987,-20.5414,-1.5402,-0.3921,-30.3064,-0.7753,-0.1934,-9.7650,-17.8193,-20.8119,-34.6473,0.310022,-0.034581,-0.021677,-0.949853,88783.14,277.58,1155.65,5.8286
3,3,3,3,-103.9423,-4.6840,-39.9056,-0.0021,-0.0042,-0.0000,-0.7633,-0.1947,-20.4806,-1.5398,-0.3874,-30.2454,-0.7765,-0.1928,-9.7649,-17.8234,-20.8097,-34.6463,0.310020,-0.034648,-0.021666,-0.949851,88710.79,277.55,1162.37,5.8571
3,3,3,3,-103.8828,-4.6900,-39.9653,-0.0019,-0.0043,-0.0000,-0.7619,-0.1917,-20.4201,-1.5396,-0.3839,-30.1849,-0.7777,-0.1922,-9.7648,-17.8276,-20.8076,-34.6452,0.310017,-0.034715,-0.021657,-0.949850,88638.62,277.51,1169.07,5.8857
3,3,3,3,-103.8268,-4.6963,-40.0215,-0.0017,-0.0045,-0.0000,-0.7611,-0.1900,-20.3600,-1.5400,-0.3817,-30.1247,-0.7789,-0.1917,-9.7646,-17.8319,-20.8058,-34.6440,0.310015,-0.034782,-0.021652,-0.949848,88566.63,277.47,1175.75,5.9143
3,3,3,3,-103.7741,-4.7028,-40.0743,-0.0015,-0.0046,-0.0000,-0.7611,-0.1896,-20.2998,-1.5412,-0.3808,-30.0643,-0.7802,-0.1913,-9.7645,-17.8363,-20.8041,-34.6425,0.310013,-0.034851,-0.021650,-0.949847,88494.81,277.44,1182.42,5.9429
3,3,3,3,-103.7247,-4.7097,-40.1240,-0.0013,-0.0047,-0.0000,-0.7621,-0.1928,-20.2355,-1.5435,-0.3837,-29.9999,-0.7815,-0.1909,-9.7644,-17.8409,-20.8026,-34.6409,0.310011,-0.034920,-0.021652,-0.949845,88423.18,277.40,1189.07,5.9714
3,3,3,3,-103.6762,-4.7168,-40.1726,-0.0014,-0.0049,-0.0000,-0.7646,-0.2051,-20.1708,-1.5475,-0.3956,-29.9351,-0.7828,-0.1905,-9.7643,-17.8456,-20.8012,-34.6391,0.310009,-0.034992,-0.021655,-0.949843,88351.72,277.36,1195.70,6.0000
3,3,3,3,-103.6241,-4.7240,-40.2249,-0.0017,-0.0049,-0.0000,-0.7679,-0.2174,-20.1065,-1.5521,-0.4075,-29.8706,-0.7842,-0.1901,-9.7642,-17.8503,-20.7997,-34.6374,0.310006,-0.035065,-0.021656,-0.949841,88280.44,277.33,1202.32,6.0286
3,3,3,3,-103.5644,-4.7312,-40.2848,-0.0022,-0.0050,0.0000,-0.7714,-0.2275,-20.0426,-1.5570,-0.4170,-29.8067,-0.7856,-0.1895,-9.7641,-17.8552,-20.7977,-34.6359,0.310004,-0.035140,-0.021652,-0.949839,88209.33,277.29,1208.92,6.0571
3,3,3,3,-103.4943,-4.7382,-40.3551,-0.0028,-0.0050,0.0000,-0.7750,-0.2342,-19.9793,-1.5620,-0.4231,-29.7432,-0.7869,-0.1888,-9.7639,-17.8601,-20.7952,-34.6347,0.310001,-0.035219,-0.021641,-0.949837,88138.40,277.25,1215.50,6.0857
3,3,3,3,-103.4124,-4.7449,-40.4373,-0.0034,-0.0049,0.0000,-0.7784,-0.2372,-19.9164,-1.5667,-0.4251,-29.6802,-0.7883,-0.1880,-9.7638,-17.8649,-20.7921,-34.6339,0.309998,-0.035300,-0.021621,-0.949836,88067.65,277.22,1222.07,6.1143
3,3,3,3,-103.3186,-4.7513,-40.5315,-0.0040,-0.0049,0.0000,-0.7814,-0.2361,-19.8541,-1.5711,-0.4231,-29.6178,-0.7897,-0.1869,-9.7637,-17.8697,-20.7884,-34.6335,0.309995,-0.035383,-0.021592,-0.949834,87997.07,277.18,1228.62,6.1429
3,3,3,3,-103.2141,-4.7573,-40.6363,-0.0046,-0.0048,0.0000,-0.7838,-0.2315,-19.7923,-1.5748,-0.4173,-29.5559,-0.7910,-0.1857,-9.7636,-17.8744,-20.7840,-34.6335,0.309991,-0.035467,-0.021555,-0.949833,87926.66,277.14,1235.16,6.1714
3,3,3,3,-103.1011,-4.7631,-40.7497,-0.0050,-0.0047,0.0000,-0.7856,-0.2240,-19.7310,-1.5780,-0.4084,-29.4945,-0.7924,-0.1844,-9.7635,-17.8790,-20.7792,-34.6338,0.309987,-0.035553,-0.021511,-0.949832,87856.43,277.11,1241.68,6.2000
3,3,3,3,-102.9826,-4.7686,-40.8686,-0.0052,-0.0046,0.0000,-0.7868,-0.2144,-19.6701,-1.5804,-0.3974,-29.4335,-0.7936,-0.1830,-9.7634,-17.8836,-20.7741,-34.6344,0.309983,-0.035638,-0.021462,-0.949831,87786.38,277.07,1248.18,6.2286
3,3,3,3,-102.8619,-4.7739,-40.9897,-0.0053,-0.0045,0.0000,-0.7874,-0.2039,-19.6096,-1.5823,-0.3854,-29.3729,-0.7949,-0.1815,-9.7633,-17.8880,-20.7688,-34.6351,0.309979,-0.035723,-0.021411,-0.949831,87716.49,277.04,1254.67,6.2571
3,3,3,3,-102.7423,-4.7792,-41.1098,-0.0052,-0.0045,0.0000,-0.7875,-0.1934,-19.5496,-1.5837,-0.3735,-29.3128,-0.7962,-0.1800,-9.7632,-17.8924,-20.7636,-34.6358,0.309975,-0.035808,-0.021359,-0.949830,87646.78,277.00,1261.14,6.2857
3,3,3,3,-102.6266,-4.7845,-41.2259,-0.0049,-0.0045,0.0000,-0.7874,-0.1840,-19.4901,-1.5848,-0.3626,-29.2532,-0.7974,-0.1786,-9.7631,-17.8968,-20.7585,-34.6364,0.309971,-0.035890,-0.021310,-0.949829,87577.24,276.96,1267.60,6.3143
3,3,3,3,-102.5171,-4.7899,-41.3357,-0.0046,-0.0045,0.0000,-0.7872,-0.1764,-19.4311,-1.5858,-0.3537,-29.1941,-0.7987,-0.1773,-9.7630,-17.9011,-20.7537,-34.6368,0.309967,-0.035972,-0.021266,-0.949828,87507.87,276.93,1274.04,6.3429
3,3,3,3,-102.4154,-4.7956,-41.4377,-0.0041,-0.0045,0.0000,-0.7870,-0.1711,-19.3724,-1.5869,-0.3472,-29.1354,-0.7999,-0.1761,-9.7629,-17.9055,-20.7494,-34.6370,0.309964,-0.036052,-0.021227,-0.949827,87438.67,276.89,1280.46,6.3714
3,3,3,3,-102.3222,-4.8014,-41.5314,-0.0037,-0.0046,0.0000,-0.7870,-0.1684,-19.3142,-1.5882,-0.3434,-29.0770,-0.8012,-0.1750,-9.7628,-17.9100,-20.7455,-34.6369,0.309960,-0.036131,-0.021194,-0.949826,87369.64,276.86,1286.87,6.4000
3,3,3,3,-102.2370,-4.8076,-41.6168,-0.0033,-0.0046,-0.0000,-0.7873,-0.1681,-19.2564,-1.5898,-0.3422,-29.0191,-0.8024,-0.1740,-9.7627,-17.9145,-20.7420,-34.6365,0.309957,-0.036209,-0.021167,-0.949825,87300.78,276.82,1293.26,6.4286
3,3,3,3,-102.1589,-4.8140,-41.6952,-0.0029,-0.0047,-0.0000,-0.7880,-0.1701,-19.1990,-1.5918,-0.3433,-28.9616,-0.8037,-0.1732,-9.7626,-17.9190,-20.7388,-34.6358,0.309954,-0.036286,-0.021146,-0.949823,87232.09,276.79,1299.64,6.4571
3,3,3,3,-102.0863,-4.8207,-41.7681,-0.0027,-0.0048,-0.0000,-0.7891,-0.1739,-19.1421,-1.5942,-0.3462,-28.9046,-0.8051,-0.1724,-9.7625,-17.9237,-20.7360,-34.6350,0.309951,-0.036363,-0.021129,-0.949822,87163.57,276.75,1306.00,6.4857
3,3,3,3,-102.0171,-4.8276,-41.8375,-0.0026,-0.0049,-0.0000,-0.7907,-0.1787,-19.0856,-1.5971,-0.3504,-28.8480,-0.8064,-0.1717,-9.7624,-17.9285,-20.7333,-34.6339,0.309948,-0.036441,-0.021115,-0.949820,87095.21,276.72,1312.34,6.5143
3,3,3,3,-101.9491,-4.8346,-41.9057,-0.0025,-0.0050,0.0000,-0.7925,-0.1840,-19.0295,-1.6003,-0.3550,-28.7918,-0.8078,-0.1710,-9.7622,-17.9333,-20.7308,-34.6328,0.309946,-0.036519,-0.021103,-0.949818,87027.03,276.68,1318.67,6.5429
3,3,3,3,-101.8803,-4.8417,-41.9748,-0.0026,-0.0050,0.0000,-0.7947,-0.1891,-18.9738,-1.6039,-0.3594,-28.7359,-0.8092,-0.1702,-9.7621,-17.9382,-20.7282,-34.6317,0.309943,-0.036598,-0.021090,-0.949816,86959.01,276.65,1324.99,6.5714
3,3,3,3,-101.8087,-4.8489,-42.0466,-0.0028,-0.0051,0.0000,-0.7970,-0.1935,-18.9185,-1.6076,-0.3629,-28.6805,-0.8106,-0.1695,-9.7620,-17.9431,-20.7254,-34.6306,0.309940,-0.036678,-0.021075,-0.949815,86891.16,276.61,1331.29,6.6000
3,3,3,3,-101.7330,-4.8560,-42.1226,-0.0031,-0.0051,0.0000,-0.7994,-0.1966,-18.8635,-1.6114,-0.3653,-28.6254,-0.8120,-0.1686,-9.7619,-17.9481,-20.7224,-34.6296,0.309937,-0.036760,-0.021057,-0.949813,86823.47,276.58,1337.57,6.6286
3,3,3,3,-101.6522,-4.8631,-42.2037,-0.0034,-0.0051,0.0000,-0.8018,-0.1982,-18.8090,-1.6152,-0.3660,-28.5708,-0.8134,-0.1677,-9.7618,-17.9530,-20.7191,-34.6288,0.309933,-0.036843,-0.021036,-0.949811,86755.95,276.54,1343.84,6.6571
3,3,3,3,-101.5660,-4.8700,-42.2902,-0.0037,-0.0051,0.0000,-0.8040,-0.1982,-18.7549,-1.6188,-0.3650,-28.5166,-0.8148,-0.1668,-9.7616,-17.9580,-20.7156,-34.6282,0.309930,-0.036928,-0.021010,-0.949810,86688.59,276.51,1350.09,6.6857
3,3,3,3,-101.4745,-4.8768,-42.3821,-0.0040,-0.0050,0.0000,-0.8060,-0.1966,-18.7012,-1.6223,-0.3623,-28.4628,-0.8162,-0.1657,-9.7615,-17.9629,-20.7117,-34.6278,0.309927,-0.037013,-0.020980,-0.949808,86621.40,276.47,1356.33,6.7143
3,3,3,3,-101.3783,-4.8835,-42.4786,-0.0042,-0.0050,0.0000,-0.8078,-0.1935,-18.6479,-1.6255,-0.3581,-28.4093,-0.8176,-0.1645,-9.7614,-17.9678,-20.7076,-34.6276,0.309923,-0.037099,-0.020947,-0.949807,86554.38,276.44,1362.55,6.7429
3,3,3,3,-101.2787,-4.8901,-42.5786,-0.0044,-0.0050,-0.0000,-0.8094,-0.1893,-18.5949,-1.6284,-0.3526,-28.3562,-0.8190,-0.1633,-9.7613,-17.9727,-20.7033,-34.6275,0.309919,-0.037186,-0.020910,-0.949805,86487.51,276.40,1368.76,6.7714
3,3,3,3,-101.1768,-4.8966,-42.6808,-0.0045,-0.0049,-0.0000,-0.8106,-0.1843,-18.5423,-1.6310,-0.3464,-28.3035,-0.8204,-0.1621,-9.7612,-17.9775,-20.6988,-34.6275,0.309915,-0.037272,-0.020872,-0.949804,86420.81,276.37,1374.95,6.8000
3,3,3,3,-101.0741,-4.9031,-42.7839,-0.0045,-0.0049,-0.0000,-0.8117,-0.1790,-18.4900,-1.6335,-0.3399,-28.2511,-0.8218,-0.1608,-9.7611,-17.9823,-20.6943,-34.6275,0.309911,-0.037359,-0.020832,-0.949803,86354.28,276.33,1381.12,6.8286
3,3,3,3,-100.9720,-4.9096,-42.8864,-0.0045,-0.0049,-0.0000,-0.8126,-0.1738,-18.4382,-1.6357,-0.3334,-28.1992,-0.8231,-0.1596,-9.7609,-17.9871,-20.6898,-34.6276,0.309907,-0.037445,-0.020793,-0.949801,86287.90,276.30,1387.29,6.8571
3,3,3,3,-100.8718,-4.9161,-42.9870,-0.0044,-0.0049,-0.0000,-0.8133,-0.1690,-18.3868,-1.6378,-0.3273,-28.1476,-0.8245,-0.1583,-9.7608,-17.9919,-20.6853,-34.6276,0.309904,-0.037531,-0.020755,-0.949800,86221.69,276.27,1393.43,6.8857
3,3,3,3,-100.7744,-4.9226,-43.0847,-0.0042,-0.0049,0.0000,-0.8140,-0.1649,-18.3356,-1.6399,-0.3221,-28.0964,-0.8258,-0.1572,-9.7607,-17.9967,-20.6811,-34.6275,0.309900,-0.037616,-0.020718,-0.949799,86155.64,276.23,1399.56,6.9143
3,3,3,3,-100.6806,-4.9293,-43.1789,-0.0040,-0.0049,0.0000,-0.8148,-0.1618,-18.2849,-1.6420,-0.3178,-28.0455,-0.8272,-0.1560,-9.7606,-18.0015,-20.6769,-34.6273,0.309896,-0.037701,-0.020684,-0.949797,86089.75,276.20,1405.68,6.9429
3,3,3,3,-100.5906,-4.9360,-43.2692,-0.0038,-0.0050,0.0000,-0.8155,-0.1597,-18.2344,-1.6441,-0.3147,-27.9949,-0.8286,-0.1549,-9.7605,-18.0063,-20.6730,-34.6269,0.309893,-0.037786,-0.020653,-0.949796,86024.02,276.16,1411.78,6.9714
3,3,3,3,-100.5046,-4.9429,-43.3555,-0.0036,-0.0050,-0.0000,-0.8165,-0.1587,-18.1843,-1.6464,-0.3126,-27.9447,-0.8300,-0.1539,-9.7604,-18.0112,-20.6693,-34.6265,0.309889,-0.037869,-0.020625,-0.949794,85958.45,276.13,1417.87,7.0000
3,3,3,3,-100.4220,-4.9500,-43.4384,-0.0034,-0.0050,-0.0000,-0.8175,-0.1587,-18.1345,-1.6489,-0.3116,-27.8948,-0.8314,-0.1529,-9.7602,-18.0161,-20.6658,-34.6258,0.309886,-0.037953,-0.020600,-0.949793,85893.04,276.10,1423.94,7.0286
3,3,3,3,-100.3424,-4.9572,-43.5183,-0.0033,-0.0051,-0.0000,-0.8188,-0.1594,-18.0852,-1.6516,-0.3114,-27.8453,-0.8328,-0.1520,-9.7601,-18.0211,-20.6624,-34.6251,0.309883,-0.038037,-0.020577,-0.949791,85827.79,276.06,1430.00,7.0571
3,3,3,3,-100.2649,-4.9645,-43.5961,-0.0032,-0.0051,-0.0000,-0.8202,-0.1608,-18.0361,-1.6544,-0.3119,-27.7961,-0.8342,-0.1511,-9.7600,-18.0261,-20.6591,-34.6243,0.309879,-0.038121,-0.020555,-0.949789,85762.70,276.03,1436.04,7.0857
3,3,3,3,-100.1886,-4.9719,-43.6727,-0.0032,-0.0052,-0.0000,-0.8218,-0.1625,-17.9874,-1.6574,-0.3127,-27.7473,-0.8357,-0.1502,-9.7599,-18.0312,-20.6559,-34.6234,0.309876,-0.038205,-0.020535,-0.949787,85697.77,276.00,1442.07,7.1143
3,3,3,3,-100.1126,-4.9794,-43.7490,-0.0032,-0.0052,-0.0000,-0.8235,-0.1642,-17.9390,-1.6606,-0.3135,-27.6987,-0.8371,-0.1493,-9.7597,-18.0363,-20.6527,-34.6225,0.309873,-0.038290,-0.020515,-0.949785,85632.99,275.96,1448.08,7.1429
3,3,3,3,-100.0360,-4.9869,-43.8259,-0.0032,-0.0053,-0.0000,-0.8253,-0.1658,-17.8909,-1.6639,-0.3142,-27.6505,-0.8386,-0.1484,-9.7596,-18.0414,-20.6495,-34.6216,0.309869,-0.038375,-0.020495,-0.949783,85568.38,275.93,1454.08,7.1714
3,3,3,3,-99.9580,-4.9945,-43.9042,-0.0033,-0.0053,-0.0000,-0.8272,-0.1670,-17.8431,-1.6673,-0.3145,-27.6026,-0.8400,-0.1475,-9.7595,-18.0466,-20.6462,-34.6207,0.309866,-0.038461,-0.020473,-0.949781,85503.92,275.90,1460.06,7.2000
3,3,3,3,-99.8780,-5.0020,-43.9844,-0.0035,-0.0053,0.0000,-0.8291,-0.1677,-17.7957,-1.6706,-0.3142,-27.5550,-0.8415,-0.1465,-9.7593,-18.0518,-20.6427,-34.6199,0.309863,-0.038548,-0.020451,-0.949779,85439.61,275.86,1466.03,7.2286
3,3,3,3,-99.7958,-5.0096,-44.0670,-0.0036,-0.0053,0.0000,-0.8310,-0.1677,-17.7486,-1.6740,-0.3132,-27.5078,-0.8430,-0.1455,-9.7592,-18.0570,-20.6392,-34.6192,0.309859,-0.038636,-0.020426,-0.949777,85375.47,275.83,1471.99,7.2571
3,3,3,3,-99.7112,-5.0172,-44.1519,-0.0038,-0.0053,0.0000,-0.8328,-0.1670,-17.7019,-1.6773,-0.3115,-27.4609,-0.8445,-0.1445,-9.7591,-18.0622,-20.6355,-34.6185,0.309856,-0.038724,-0.020400,-0.949776,85311.48,275.80,1477.93,7.2857
3,3,3,3,-99.6242,-5.0247,-44.2392,-0.0039,-0.0053,-0.0000,-0.8346,-0.1657,-17.6554,-1.6806,-0.3091,-27.4143,-0.8460,-0.1435,-9.7589,-18.0674,-20.6316,-34.6179,0.309852,-0.038813,-0.020371,-0.949774,85247.64,275.76,1483.85,7.3143
3,3,3,3,-99.5353,-5.0322,-44.3285,-0.0040,-0.0053,-0.0000,-0.8363,-0.1637,-17.6092,-1.6837,-0.3061,-27.3680,-0.8474,-0.1423,-9.7588,-18.0726,-20.6277,-34.6174,0.309848,-0.038903,-0.020341,-0.949772,85183.96,275.73,1489.77,7.3429
3,3,3,3,-99.4446,-5.0396,-44.4195,-0.0041,-0.0053,-0.0000,-0.8378,-0.1613,-17.5633,-1.6867,-0.3025,-27.3220,-0.8489,-0.1412,-9.7587,-18.0778,-20.6236,-34.6170,0.309844,-0.038993,-0.020309,-0.949770,85120.44,275.70,1495.66,7.3714
3,3,3,3,-99.3530,-5.0471,-44.5115,-0.0042,-0.0053,-0.0000,-0.8393,-0.1586,-17.5177,-1.6896,-0.2986,-27.2763,-0.8504,-0.1401,-9.7586,-18.0830,-20.6194,-34.6166,0.309841,-0.039083,-0.020277,-0.949768,85057.06,275.67,1501.55,7.4000
3,3,3,3,-99.2609,-5.0545,-44.6040,-0.0042,-0.0053,-0.0000,-0.8406,-0.1556,-17.4725,-1.6925,-0.2945,-27.2309,-0.8519,-0.1389,-9.7584,-18.0881,-20.6153,-34.6162,0.309837,-0.039173,-0.020243,-0.949767,84994.14,275.63,1507.41,7.4286
3,3,3,3,-99.1689,-5.0620,-44.6963,-0.0042,-0.0053,-0.0000,-0.8419,-0.1526,-17.4275,-1.6952,-0.2904,-27.1858,-0.8533,-0.1377,-9.7583,-18.0933,-20.6111,-34.6158,0.309833,-0.039263,-0.020210,-0.949765,84934.06,275.60,1513.27,7.4571
